[
  {
    "serviceRegion": {
      "code": "1000",
      "name": "수도권"
    },
    "realInfo": [
      {
        "id": "20214",
        "logicalLine": {
          "code": "22",
          "name": "인천2호선"
        },
        "longitude": "126.6730298",
        "latitude": "37.592865",
        "name": "완정",
        "koName": "완정",
        "enName": "Wanjeong",
        "displayCode": "I205"
      },
      {
        "id": "20213",
        "logicalLine": {
          "code": "22",
          "name": "인천2호선"
        },
        "longitude": "126.6671363",
        "latitude": "37.5977134",
        "name": "마전",
        "koName": "마전",
        "enName": "Majeon",
        "displayCode": "I204"
      },
      {
        "id": "20212",
        "logicalLine": {
          "code": "22",
          "name": "인천2호선"
        },
        "longitude": "126.6566189",
        "latitude": "37.6017177",
        "name": "검단사거리",
        "koName": "검단사거리",
        "enName": "Geomdan Sageori",
        "displayCode": "I203"
      },
      {
        "id": "20211",
        "logicalLine": {
          "code": "22",
          "name": "인천2호선"
        },
        "longitude": "126.642479",
        "latitude": "37.5951339",
        "name": "왕길",
        "koName": "왕길",
        "enName": "Wanggill",
        "displayCode": "I202"
      },
      {
        "id": "20210",
        "logicalLine": {
          "code": "22",
          "name": "인천2호선"
        },
        "longitude": "126.6280074",
        "latitude": "37.5948489",
        "name": "검단오류",
        "koName": "검단오류",
        "enName": "Geomdan Oryu",
        "displayCode": "I201"
      },
      {
        "id": "20219",
        "logicalLine": {
          "code": "22",
          "name": "인천2호선"
        },
        "longitude": "126.6768373",
        "latitude": "37.5439103",
        "name": "서구청",
        "koName": "서구청",
        "enName": "Seo-gu Office",
        "displayCode": "I210"
      },
      {
        "id": "20218",
        "logicalLine": {
          "code": "22",
          "name": "인천2호선"
        },
        "longitude": "126.677103",
        "latitude": "37.5513036",
        "name": "아시아드경기장",
        "koName": "아시아드경기장",
        "enName": "Asiad Stadium",
        "displayCode": "I209"
      },
      {
        "id": "20217",
        "logicalLine": {
          "code": "22",
          "name": "인천2호선"
        },
        "longitude": "126.677519",
        "latitude": "37.5611734",
        "name": "검바위",
        "koName": "검바위",
        "enName": "Geombawi",
        "displayCode": "I208"
      },
      {
        "id": "20216",
        "logicalLine": {
          "code": "22",
          "name": "인천2호선"
        },
        "longitude": "126.6756595",
        "latitude": "37.5687033",
        "name": "검암",
        "koName": "검암",
        "enName": "Geomam",
        "displayCode": "I207"
      },
      {
        "id": "20215",
        "logicalLine": {
          "code": "22",
          "name": "인천2호선"
        },
        "longitude": "126.6759863",
        "latitude": "37.5849123",
        "name": "독정",
        "koName": "독정",
        "enName": "Dokjeong",
        "displayCode": "I206"
      },
      {
        "id": "20225",
        "logicalLine": {
          "code": "22",
          "name": "인천2호선"
        },
        "longitude": "126.6838328",
        "latitude": "37.4841058",
        "name": "가재울",
        "koName": "가재울",
        "enName": "Gajaeul",
        "displayCode": "I216"
      },
      {
        "id": "20224",
        "logicalLine": {
          "code": "22",
          "name": "인천2호선"
        },
        "longitude": "126.6752463",
        "latitude": "37.4900531",
        "name": "인천가좌",
        "koName": "인천가좌",
        "enName": "Incheon Gajwa",
        "displayCode": "I215"
      },
      {
        "id": "20223",
        "logicalLine": {
          "code": "22",
          "name": "인천2호선"
        },
        "longitude": "126.6758569",
        "latitude": "37.5003027",
        "name": "서부여성회관",
        "koName": "서부여성회관",
        "enName": "West Woman’s Community Center",
        "displayCode": "I214"
      },
      {
        "id": "20222",
        "logicalLine": {
          "code": "22",
          "name": "인천2호선"
        },
        "longitude": "126.6762655",
        "latitude": "37.5071618",
        "name": "석남",
        "koName": "석남",
        "enName": "Seongnam",
        "displayCode": "I213"
      },
      {
        "id": "20221",
        "logicalLine": {
          "code": "22",
          "name": "인천2호선"
        },
        "longitude": "126.6768155",
        "latitude": "37.5174714",
        "name": "가정중앙시장",
        "koName": "가정중앙시장",
        "enName": "Gajeong Jungang Market",
        "displayCode": "I212"
      },
      {
        "id": "20220",
        "logicalLine": {
          "code": "22",
          "name": "인천2호선"
        },
        "longitude": "126.6753548",
        "latitude": "37.524725",
        "name": "가정",
        "koName": "가정",
        "enName": "Gajeong",
        "displayCode": "I211"
      },
      {
        "id": "20229",
        "logicalLine": {
          "code": "22",
          "name": "인천2호선"
        },
        "longitude": "126.6921913",
        "latitude": "37.4576958",
        "name": "석바위시장",
        "koName": "석바위시장",
        "enName": "Seokbawi Market",
        "displayCode": "I220"
      },
      {
        "id": "20228",
        "logicalLine": {
          "code": "22",
          "name": "인천2호선"
        },
        "longitude": "126.6810909",
        "latitude": "37.4583909",
        "name": "시민공원",
        "koName": "시민공원",
        "enName": "Citizens Park",
        "displayCode": "I219"
      },
      {
        "id": "20227",
        "logicalLine": {
          "code": "22",
          "name": "인천2호선"
        },
        "longitude": "126.6791041",
        "latitude": "37.4654372",
        "name": "주안",
        "koName": "주안",
        "enName": "Juan",
        "displayCode": "I218"
      },
      {
        "id": "20226",
        "logicalLine": {
          "code": "22",
          "name": "인천2호선"
        },
        "longitude": "126.6812163",
        "latitude": "37.4739745",
        "name": "주안국가산단",
        "koName": "주안국가산단",
        "enName": "Juan National Industrial Complex",
        "displayCode": "I217"
      },
      {
        "id": "11515",
        "logicalLine": {
          "code": "115",
          "name": "김포골드라인"
        },
        "longitude": "126.6838489",
        "latitude": "37.6538667",
        "name": "운양",
        "koName": "운양",
        "enName": "Unyang",
        "displayCode": "G104"
      },
      {
        "id": "11514",
        "logicalLine": {
          "code": "115",
          "name": "김포골드라인"
        },
        "longitude": "126.6691099",
        "latitude": "37.6441705",
        "name": "장기",
        "koName": "장기",
        "enName": "Janggi",
        "displayCode": "G103"
      },
      {
        "id": "11517",
        "logicalLine": {
          "code": "115",
          "name": "김포골드라인"
        },
        "longitude": "126.7198386",
        "latitude": "37.6203107",
        "name": "사우",
        "koName": "사우",
        "enName": "Sau(Gimpo City Hall)",
        "displayCode": "G106"
      },
      {
        "id": "11516",
        "logicalLine": {
          "code": "115",
          "name": "김포골드라인"
        },
        "longitude": "126.7057322",
        "latitude": "37.6316502",
        "name": "걸포북변",
        "koName": "걸포북변",
        "enName": "Geolpo Bukbyeon",
        "displayCode": "G105"
      },
      {
        "id": "11519",
        "logicalLine": {
          "code": "115",
          "name": "김포골드라인"
        },
        "longitude": "126.7702144",
        "latitude": "37.6013994",
        "name": "고촌",
        "koName": "고촌",
        "enName": "Gochon",
        "displayCode": "G108"
      },
      {
        "id": "11518",
        "logicalLine": {
          "code": "115",
          "name": "김포골드라인"
        },
        "longitude": "126.7326928",
        "latitude": "37.6122941",
        "name": "풍무",
        "koName": "풍무",
        "enName": "Pungmu",
        "displayCode": "G107"
      },
      {
        "id": "11511",
        "logicalLine": {
          "code": "115",
          "name": "김포골드라인"
        },
        "longitude": "126.6148276",
        "latitude": "37.6416449",
        "name": "양촌",
        "koName": "양촌",
        "enName": "Yangchon",
        "displayCode": "G100"
      },
      {
        "id": "11513",
        "logicalLine": {
          "code": "115",
          "name": "김포골드라인"
        },
        "longitude": "126.6445072",
        "latitude": "37.6408135",
        "name": "마산",
        "koName": "마산",
        "enName": "Masan",
        "displayCode": "G102"
      },
      {
        "id": "11512",
        "logicalLine": {
          "code": "115",
          "name": "김포골드라인"
        },
        "longitude": "126.6287076",
        "latitude": "37.6453969",
        "name": "구래",
        "koName": "구래",
        "enName": "Gurae",
        "displayCode": "G101"
      },
      {
        "id": "810",
        "logicalLine": {
          "code": "8",
          "name": "8호선"
        },
        "longitude": "127.127537",
        "latitude": "37.5501577",
        "name": "암사",
        "koName": "암사",
        "enName": "Amsa",
        "displayCode": "810"
      },
      {
        "id": "811",
        "logicalLine": {
          "code": "8",
          "name": "8호선"
        },
        "longitude": "127.123252",
        "latitude": "37.5380164",
        "name": "천호",
        "koName": "천호",
        "enName": "Cheonho",
        "displayCode": "811"
      },
      {
        "id": "812",
        "logicalLine": {
          "code": "8",
          "name": "8호선"
        },
        "longitude": "127.1205474",
        "latitude": "37.5305204",
        "name": "강동구청",
        "koName": "강동구청",
        "enName": "Gangdong-gu Office",
        "displayCode": "812"
      },
      {
        "id": "813",
        "logicalLine": {
          "code": "8",
          "name": "8호선"
        },
        "longitude": "127.1127749",
        "latitude": "37.5176625",
        "name": "몽촌토성",
        "koName": "몽촌토성",
        "enName": "Mongchontoseong",
        "displayCode": "813"
      },
      {
        "id": "814",
        "logicalLine": {
          "code": "8",
          "name": "8호선"
        },
        "longitude": "127.1046659",
        "latitude": "37.5147742",
        "name": "잠실",
        "koName": "잠실",
        "enName": "Jamsil",
        "displayCode": "814"
      },
      {
        "id": "815",
        "logicalLine": {
          "code": "8",
          "name": "8호선"
        },
        "longitude": "127.1066681",
        "latitude": "37.5057994",
        "name": "석촌",
        "koName": "석촌",
        "enName": "Seokchon",
        "displayCode": "815"
      },
      {
        "id": "11720",
        "logicalLine": {
          "code": "117",
          "name": "신림선"
        },
        "longitude": "126.9338921",
        "latitude": "37.472059",
        "name": "서울대벤처타운",
        "koName": "서울대벤처타운",
        "enName": "Seoul National Univ. Venture Town",
        "displayCode": "S410"
      },
      {
        "id": "816",
        "logicalLine": {
          "code": "8",
          "name": "8호선"
        },
        "longitude": "127.1122763",
        "latitude": "37.4996787",
        "name": "송파",
        "koName": "송파",
        "enName": "Songpa",
        "displayCode": "816"
      },
      {
        "id": "817",
        "logicalLine": {
          "code": "8",
          "name": "8호선"
        },
        "longitude": "127.1183096",
        "latitude": "37.4929616",
        "name": "가락시장",
        "koName": "가락시장",
        "enName": "Garak Market",
        "displayCode": "817"
      },
      {
        "id": "818",
        "logicalLine": {
          "code": "8",
          "name": "8호선"
        },
        "longitude": "127.122474",
        "latitude": "37.4859725",
        "name": "문정",
        "koName": "문정",
        "enName": "Munjeong",
        "displayCode": "818"
      },
      {
        "id": "11721",
        "logicalLine": {
          "code": "117",
          "name": "신림선"
        },
        "longitude": "126.9451491",
        "latitude": "37.468935",
        "name": "관악산",
        "koName": "관악산",
        "enName": "Gwanaksan",
        "displayCode": "S411"
      },
      {
        "id": "819",
        "logicalLine": {
          "code": "8",
          "name": "8호선"
        },
        "longitude": "127.1261965",
        "latitude": "37.4786789",
        "name": "장지",
        "koName": "장지",
        "enName": "Jangji",
        "displayCode": "819"
      },
      {
        "id": "820",
        "logicalLine": {
          "code": "8",
          "name": "8호선"
        },
        "longitude": "127.1267775",
        "latitude": "37.4712088",
        "name": "복정",
        "koName": "복정",
        "enName": "Bokjeong",
        "displayCode": "820"
      },
      {
        "id": "821",
        "logicalLine": {
          "code": "8",
          "name": "8호선"
        },
        "longitude": "127.1500271",
        "latitude": "37.457001",
        "name": "산성",
        "koName": "산성",
        "enName": "Sanseong",
        "displayCode": "822"
      },
      {
        "id": "822",
        "logicalLine": {
          "code": "8",
          "name": "8호선"
        },
        "longitude": "127.1598367",
        "latitude": "37.4515477",
        "name": "남한산성입구",
        "koName": "남한산성입구",
        "enName": "Namhansanseong",
        "displayCode": "823"
      },
      {
        "id": "823",
        "logicalLine": {
          "code": "8",
          "name": "8호선"
        },
        "longitude": "127.156872",
        "latitude": "37.445188",
        "name": "단대오거리",
        "koName": "단대오거리",
        "enName": "Dandaeogeori",
        "displayCode": "824"
      },
      {
        "id": "824",
        "logicalLine": {
          "code": "8",
          "name": "8호선"
        },
        "longitude": "127.1475088",
        "latitude": "37.4409557",
        "name": "신흥",
        "koName": "신흥",
        "enName": "Sinheung",
        "displayCode": "825"
      },
      {
        "id": "825",
        "logicalLine": {
          "code": "8",
          "name": "8호선"
        },
        "longitude": "127.1403863",
        "latitude": "37.4372518",
        "name": "수진",
        "koName": "수진",
        "enName": "Sujin",
        "displayCode": "826"
      },
      {
        "id": "826",
        "logicalLine": {
          "code": "8",
          "name": "8호선"
        },
        "longitude": "127.1302584",
        "latitude": "37.4339563",
        "name": "모란",
        "koName": "모란",
        "enName": "Moran",
        "displayCode": "827"
      },
      {
        "id": "831",
        "logicalLine": {
          "code": "8",
          "name": "8호선"
        },
        "longitude": "127.1390639",
        "latitude": "37.4628563",
        "name": "남위례",
        "koName": "남위례",
        "enName": "Namwirye",
        "displayCode": "821"
      },
      {
        "id": "11713",
        "logicalLine": {
          "code": "117",
          "name": "신림선"
        },
        "longitude": "126.9225941",
        "latitude": "37.505772",
        "name": "서울지방병무청",
        "koName": "서울지방병무청",
        "enName": "Seoul Regional Office of Military Manpower",
        "displayCode": "S403"
      },
      {
        "id": "11712",
        "logicalLine": {
          "code": "117",
          "name": "신림선"
        },
        "longitude": "126.9252411",
        "latitude": "37.5127",
        "name": "대방",
        "koName": "대방",
        "enName": "Daebang",
        "displayCode": "S402"
      },
      {
        "id": "11715",
        "logicalLine": {
          "code": "117",
          "name": "신림선"
        },
        "longitude": "126.9182601",
        "latitude": "37.495396",
        "name": "보라매공원",
        "koName": "보라매공원",
        "enName": "Boramae Park",
        "displayCode": "S405"
      },
      {
        "id": "11714",
        "logicalLine": {
          "code": "117",
          "name": "신림선"
        },
        "longitude": "126.9204371",
        "latitude": "37.500408",
        "name": "보라매",
        "koName": "보라매",
        "enName": "Boramae",
        "displayCode": "S404"
      },
      {
        "id": "11717",
        "logicalLine": {
          "code": "117",
          "name": "신림선"
        },
        "longitude": "126.9275591",
        "latitude": "37.490253",
        "name": "당곡",
        "koName": "당곡",
        "enName": "Danggok",
        "displayCode": "S407"
      },
      {
        "id": "11716",
        "logicalLine": {
          "code": "117",
          "name": "신림선"
        },
        "longitude": "126.9238121",
        "latitude": "37.49297",
        "name": "보라매병원",
        "koName": "보라매병원",
        "enName": "Boramae Hospital",
        "displayCode": "S406"
      },
      {
        "id": "11719",
        "logicalLine": {
          "code": "117",
          "name": "신림선"
        },
        "longitude": "126.9331461",
        "latitude": "37.478229",
        "name": "서원",
        "koName": "서원",
        "enName": "Seowon",
        "displayCode": "S409"
      },
      {
        "id": "11718",
        "logicalLine": {
          "code": "117",
          "name": "신림선"
        },
        "longitude": "126.9296521",
        "latitude": "37.484736",
        "name": "신림",
        "koName": "신림",
        "enName": "Sillim",
        "displayCode": "S408"
      },
      {
        "id": "11711",
        "logicalLine": {
          "code": "117",
          "name": "신림선"
        },
        "longitude": "126.9292931",
        "latitude": "37.517136",
        "name": "샛강",
        "koName": "샛강",
        "enName": "Saetgang",
        "displayCode": "S401"
      },
      {
        "id": "610",
        "logicalLine": {
          "code": "6",
          "name": "6호선"
        },
        "longitude": "126.9156008",
        "latitude": "37.5984852",
        "name": "응암",
        "koName": "응암",
        "enName": "Eungam",
        "displayCode": "610"
      },
      {
        "id": "611",
        "logicalLine": {
          "code": "6",
          "name": "6호선"
        },
        "longitude": "126.9227908",
        "latitude": "37.6061227",
        "name": "역촌",
        "koName": "역촌",
        "enName": "Yeokchon",
        "displayCode": "611"
      },
      {
        "id": "612",
        "logicalLine": {
          "code": "6",
          "name": "6호선"
        },
        "longitude": "126.9296543",
        "latitude": "37.6110424",
        "name": "불광",
        "koName": "불광",
        "enName": "Bulgwang",
        "displayCode": "612"
      },
      {
        "id": "613",
        "logicalLine": {
          "code": "6",
          "name": "6호선"
        },
        "longitude": "126.9330601",
        "latitude": "37.6183908",
        "name": "독바위",
        "koName": "독바위",
        "enName": "Dokbawi",
        "displayCode": "613"
      },
      {
        "id": "614",
        "logicalLine": {
          "code": "6",
          "name": "6호선"
        },
        "longitude": "126.9204314",
        "latitude": "37.6185586",
        "name": "연신내",
        "koName": "연신내",
        "enName": "Yeonsinnae",
        "displayCode": "614"
      },
      {
        "id": "615",
        "logicalLine": {
          "code": "6",
          "name": "6호선"
        },
        "longitude": "126.9173219",
        "latitude": "37.6113864",
        "name": "구산",
        "koName": "구산",
        "enName": "Gusan",
        "displayCode": "615"
      },
      {
        "id": "616",
        "logicalLine": {
          "code": "6",
          "name": "6호선"
        },
        "longitude": "126.9136065",
        "latitude": "37.5910546",
        "name": "새절",
        "koName": "새절",
        "enName": "Saejeol",
        "displayCode": "616"
      },
      {
        "id": "617",
        "logicalLine": {
          "code": "6",
          "name": "6호선"
        },
        "longitude": "126.9096966",
        "latitude": "37.5839486",
        "name": "증산",
        "koName": "증산",
        "enName": "Jeungsan",
        "displayCode": "617"
      },
      {
        "id": "618",
        "logicalLine": {
          "code": "6",
          "name": "6호선"
        },
        "longitude": "126.9012173",
        "latitude": "37.5764222",
        "name": "디지털미디어시티",
        "koName": "디지털미디어시티",
        "enName": "Digital Media City",
        "displayCode": "618"
      },
      {
        "id": "619",
        "logicalLine": {
          "code": "6",
          "name": "6호선"
        },
        "longitude": "126.899273",
        "latitude": "37.569657",
        "name": "월드컵경기장",
        "koName": "월드컵경기장",
        "enName": "World Cup Stadium",
        "displayCode": "619"
      },
      {
        "id": "620",
        "logicalLine": {
          "code": "6",
          "name": "6호선"
        },
        "longitude": "126.903444",
        "latitude": "37.5634062",
        "name": "마포구청",
        "koName": "마포구청",
        "enName": "Mapo-gu Office",
        "displayCode": "620"
      },
      {
        "id": "621",
        "logicalLine": {
          "code": "6",
          "name": "6호선"
        },
        "longitude": "126.9101054",
        "latitude": "37.5560681",
        "name": "망원",
        "koName": "망원",
        "enName": "Mangwon",
        "displayCode": "621"
      },
      {
        "id": "622",
        "logicalLine": {
          "code": "6",
          "name": "6호선"
        },
        "longitude": "126.9135421",
        "latitude": "37.5492319",
        "name": "합정",
        "koName": "합정",
        "enName": "Hapjeong",
        "displayCode": "622"
      },
      {
        "id": "623",
        "logicalLine": {
          "code": "6",
          "name": "6호선"
        },
        "longitude": "126.9223054",
        "latitude": "37.5477659",
        "name": "상수",
        "koName": "상수",
        "enName": "Sangsu",
        "displayCode": "623"
      },
      {
        "id": "624",
        "logicalLine": {
          "code": "6",
          "name": "6호선"
        },
        "longitude": "126.9319509",
        "latitude": "37.5474807",
        "name": "광흥창",
        "koName": "광흥창",
        "enName": "Gwangheungchang",
        "displayCode": "624"
      },
      {
        "id": "625",
        "logicalLine": {
          "code": "6",
          "name": "6호선"
        },
        "longitude": "126.9424666",
        "latitude": "37.5476314",
        "name": "대흥",
        "koName": "대흥",
        "enName": "Daeheung",
        "displayCode": "625"
      },
      {
        "id": "626",
        "logicalLine": {
          "code": "6",
          "name": "6호선"
        },
        "longitude": "126.9519689",
        "latitude": "37.5435148",
        "name": "공덕",
        "koName": "공덕",
        "enName": "Gongdeok",
        "displayCode": "626"
      },
      {
        "id": "627",
        "logicalLine": {
          "code": "6",
          "name": "6호선"
        },
        "longitude": "126.9614375",
        "latitude": "37.5392738",
        "name": "효창공원앞",
        "koName": "효창공원앞",
        "enName": "Hyochang Park",
        "displayCode": "627"
      },
      {
        "id": "628",
        "logicalLine": {
          "code": "6",
          "name": "6호선"
        },
        "longitude": "126.9740193",
        "latitude": "37.5355916",
        "name": "삼각지",
        "koName": "삼각지",
        "enName": "Samgakji",
        "displayCode": "628"
      },
      {
        "id": "629",
        "logicalLine": {
          "code": "6",
          "name": "6호선"
        },
        "longitude": "126.9868953",
        "latitude": "37.5345855",
        "name": "녹사평",
        "koName": "녹사평",
        "enName": "Noksapyeong",
        "displayCode": "629"
      },
      {
        "id": "630",
        "logicalLine": {
          "code": "6",
          "name": "6호선"
        },
        "longitude": "126.9945905",
        "latitude": "37.5345416",
        "name": "이태원",
        "koName": "이태원",
        "enName": "Itaewon",
        "displayCode": "630"
      },
      {
        "id": "11109",
        "logicalLine": {
          "code": "116",
          "name": "수인분당선"
        },
        "longitude": "126.9802893",
        "latitude": "37.2496683",
        "name": "고색",
        "koName": "고색",
        "enName": "Gosaek",
        "displayCode": "K246"
      },
      {
        "id": "631",
        "logicalLine": {
          "code": "6",
          "name": "6호선"
        },
        "longitude": "127.0018016",
        "latitude": "37.5398285",
        "name": "한강진",
        "koName": "한강진",
        "enName": "Hangangjin",
        "displayCode": "631"
      },
      {
        "id": "632",
        "logicalLine": {
          "code": "6",
          "name": "6호선"
        },
        "longitude": "127.0071404",
        "latitude": "37.5481113",
        "name": "버티고개",
        "koName": "버티고개",
        "enName": "Beotigogae",
        "displayCode": "632"
      },
      {
        "id": "633",
        "logicalLine": {
          "code": "6",
          "name": "6호선"
        },
        "longitude": "127.010306",
        "latitude": "37.554173",
        "name": "약수",
        "koName": "약수",
        "enName": "Yaksu",
        "displayCode": "633"
      },
      {
        "id": "1299",
        "logicalLine": {
          "code": "104",
          "name": "경의중앙선"
        },
        "longitude": "127.6289069",
        "latitude": "37.4768182",
        "name": "지평",
        "koName": "지평",
        "enName": "Jipyeong",
        "displayCode": "K138"
      },
      {
        "id": "634",
        "logicalLine": {
          "code": "6",
          "name": "6호선"
        },
        "longitude": "127.0137374",
        "latitude": "37.5601733",
        "name": "청구",
        "koName": "청구",
        "enName": "Cheonggu",
        "displayCode": "634"
      },
      {
        "id": "635",
        "logicalLine": {
          "code": "6",
          "name": "6호선"
        },
        "longitude": "127.0161834",
        "latitude": "37.5660717",
        "name": "신당",
        "koName": "신당",
        "enName": "Sindang",
        "displayCode": "635"
      },
      {
        "id": "636",
        "logicalLine": {
          "code": "6",
          "name": "6호선"
        },
        "longitude": "127.0156713",
        "latitude": "37.5726026",
        "name": "동묘앞",
        "koName": "동묘앞",
        "enName": "Dongmyo",
        "displayCode": "636"
      },
      {
        "id": "637",
        "logicalLine": {
          "code": "6",
          "name": "6호선"
        },
        "longitude": "127.0153112",
        "latitude": "37.5793699",
        "name": "창신",
        "koName": "창신",
        "enName": "Changsin",
        "displayCode": "637"
      },
      {
        "id": "638",
        "logicalLine": {
          "code": "6",
          "name": "6호선"
        },
        "longitude": "127.0199429",
        "latitude": "37.5855334",
        "name": "보문",
        "koName": "보문",
        "enName": "Bomun",
        "displayCode": "638"
      },
      {
        "id": "639",
        "logicalLine": {
          "code": "6",
          "name": "6호선"
        },
        "longitude": "127.0291549",
        "latitude": "37.5863023",
        "name": "안암",
        "koName": "안암",
        "enName": "Anam",
        "displayCode": "639"
      },
      {
        "id": "11119",
        "logicalLine": {
          "code": "116",
          "name": "수인분당선"
        },
        "longitude": "126.7663857",
        "latitude": "37.3379844",
        "name": "신길온천",
        "koName": "신길온천",
        "enName": "Singil oncheon",
        "displayCode": "K256"
      },
      {
        "id": "11118",
        "logicalLine": {
          "code": "116",
          "name": "수인분당선"
        },
        "longitude": "126.7880928",
        "latitude": "37.3273233",
        "name": "안산",
        "koName": "안산",
        "enName": "Ansan",
        "displayCode": "K255"
      },
      {
        "id": "640",
        "logicalLine": {
          "code": "6",
          "name": "6호선"
        },
        "longitude": "127.0359257",
        "latitude": "37.5904028",
        "name": "고려대",
        "koName": "고려대",
        "enName": "Korea Univ.",
        "displayCode": "640"
      },
      {
        "id": "641",
        "logicalLine": {
          "code": "6",
          "name": "6호선"
        },
        "longitude": "127.0415747",
        "latitude": "37.6019902",
        "name": "월곡",
        "koName": "월곡",
        "enName": "Wolgok",
        "displayCode": "641"
      },
      {
        "id": "642",
        "logicalLine": {
          "code": "6",
          "name": "6호선"
        },
        "longitude": "127.0488824",
        "latitude": "37.6066054",
        "name": "상월곡",
        "koName": "상월곡",
        "enName": "Sangwolgok",
        "displayCode": "642"
      },
      {
        "id": "643",
        "logicalLine": {
          "code": "6",
          "name": "6호선"
        },
        "longitude": "127.056439",
        "latitude": "37.6105236",
        "name": "돌곶이",
        "koName": "돌곶이",
        "enName": "Dolgoji",
        "displayCode": "643"
      },
      {
        "id": "644",
        "logicalLine": {
          "code": "6",
          "name": "6호선"
        },
        "longitude": "127.0662704",
        "latitude": "37.6148423",
        "name": "석계",
        "koName": "석계",
        "enName": "Seokgye",
        "displayCode": "644"
      },
      {
        "id": "645",
        "logicalLine": {
          "code": "6",
          "name": "6호선"
        },
        "longitude": "127.0748596",
        "latitude": "37.6173652",
        "name": "태릉입구",
        "koName": "태릉입구",
        "enName": "Taereung",
        "displayCode": "645"
      },
      {
        "id": "646",
        "logicalLine": {
          "code": "6",
          "name": "6호선"
        },
        "longitude": "127.083978",
        "latitude": "37.619882",
        "name": "화랑대",
        "koName": "화랑대",
        "enName": "Hwarangdae",
        "displayCode": "646"
      },
      {
        "id": "11111",
        "logicalLine": {
          "code": "116",
          "name": "수인분당선"
        },
        "longitude": "126.9089578",
        "latitude": "37.2500921",
        "name": "어천",
        "koName": "어천",
        "enName": "Eocheon",
        "displayCode": "K248"
      },
      {
        "id": "405",
        "logicalLine": {
          "code": "4",
          "name": "4호선"
        },
        "longitude": "127.2032481",
        "latitude": "37.719823",
        "name": "진접",
        "koName": "진접",
        "enName": "Jinjeop",
        "displayCode": "405"
      },
      {
        "id": "647",
        "logicalLine": {
          "code": "6",
          "name": "6호선"
        },
        "longitude": "127.0913317",
        "latitude": "37.6173718",
        "name": "봉화산",
        "koName": "봉화산",
        "enName": "Bonghwasan",
        "displayCode": "647"
      },
      {
        "id": "11110",
        "logicalLine": {
          "code": "116",
          "name": "수인분당선"
        },
        "longitude": "126.964121",
        "latitude": "37.2434864",
        "name": "오목천",
        "koName": "오목천",
        "enName": "Omokcheon",
        "displayCode": "K247"
      },
      {
        "id": "406",
        "logicalLine": {
          "code": "4",
          "name": "4호선"
        },
        "longitude": "127.1910131",
        "latitude": "37.705191",
        "name": "오남",
        "koName": "오남",
        "enName": "Onam",
        "displayCode": "406"
      },
      {
        "id": "648",
        "logicalLine": {
          "code": "6",
          "name": "6호선"
        },
        "longitude": "127.1045033",
        "latitude": "37.6123717",
        "name": "신내",
        "koName": "신내",
        "enName": "Sinnae",
        "displayCode": "648"
      },
      {
        "id": "11113",
        "logicalLine": {
          "code": "116",
          "name": "수인분당선"
        },
        "longitude": "126.8571791",
        "latitude": "37.2909129",
        "name": "사리",
        "koName": "사리",
        "enName": "Sari",
        "displayCode": "K250"
      },
      {
        "id": "11112",
        "logicalLine": {
          "code": "116",
          "name": "수인분당선"
        },
        "longitude": "126.8840766",
        "latitude": "37.2611904",
        "name": "야목",
        "koName": "야목",
        "enName": "Yamok",
        "displayCode": "K249"
      },
      {
        "id": "408",
        "logicalLine": {
          "code": "4",
          "name": "4호선"
        },
        "longitude": "127.1160531",
        "latitude": "37.667776",
        "name": "별내별가람",
        "koName": "별내별가람",
        "enName": "Byeollae Byeolgaram",
        "displayCode": "408"
      },
      {
        "id": "11115",
        "logicalLine": {
          "code": "116",
          "name": "수인분당선"
        },
        "longitude": "126.8375964",
        "latitude": "37.3161041",
        "name": "중앙",
        "koName": "중앙",
        "enName": "Jungang",
        "displayCode": "K252"
      },
      {
        "id": "409",
        "logicalLine": {
          "code": "4",
          "name": "4호선"
        },
        "longitude": "127.0791285",
        "latitude": "37.6703413",
        "name": "당고개",
        "koName": "당고개",
        "enName": "Danggogae",
        "displayCode": "409"
      },
      {
        "id": "11114",
        "logicalLine": {
          "code": "116",
          "name": "수인분당선"
        },
        "longitude": "126.8531445",
        "latitude": "37.3102248",
        "name": "한대앞",
        "koName": "한대앞",
        "enName": "Hangyang Univ. at Ansan",
        "displayCode": "K251"
      },
      {
        "id": "11117",
        "logicalLine": {
          "code": "116",
          "name": "수인분당선"
        },
        "longitude": "126.8052422",
        "latitude": "37.3210165",
        "name": "초지",
        "koName": "초지",
        "enName": "Choji",
        "displayCode": "K254"
      },
      {
        "id": "11116",
        "logicalLine": {
          "code": "116",
          "name": "수인분당선"
        },
        "longitude": "126.8222592",
        "latitude": "37.3168803",
        "name": "고잔",
        "koName": "고잔",
        "enName": "Gojan",
        "displayCode": "K253"
      },
      {
        "id": "11328",
        "logicalLine": {
          "code": "113",
          "name": "우이신설선"
        },
        "longitude": "127.0135351",
        "latitude": "37.6202664",
        "name": "솔샘",
        "koName": "솔샘",
        "enName": "Solsaem",
        "displayCode": "S117"
      },
      {
        "id": "11327",
        "logicalLine": {
          "code": "113",
          "name": "우이신설선"
        },
        "longitude": "127.0205069",
        "latitude": "37.6213406",
        "name": "삼양사거리",
        "koName": "삼양사거리",
        "enName": "Samyang Sageori",
        "displayCode": "S116"
      },
      {
        "id": "410",
        "logicalLine": {
          "code": "4",
          "name": "4호선"
        },
        "longitude": "127.0733408",
        "latitude": "37.6607073",
        "name": "상계",
        "koName": "상계",
        "enName": "Sanggye",
        "displayCode": "410"
      },
      {
        "id": "11329",
        "logicalLine": {
          "code": "113",
          "name": "우이신설선"
        },
        "longitude": "127.0081539",
        "latitude": "37.6122156",
        "name": "북한산보국문",
        "koName": "북한산보국문",
        "enName": "Bukhansan Bogungmun",
        "displayCode": "S118"
      },
      {
        "id": "411",
        "logicalLine": {
          "code": "4",
          "name": "4호선"
        },
        "longitude": "127.0634132",
        "latitude": "37.6563653",
        "name": "노원",
        "koName": "노원",
        "enName": "Nowon",
        "displayCode": "411"
      },
      {
        "id": "412",
        "logicalLine": {
          "code": "4",
          "name": "4호선"
        },
        "longitude": "127.0479675",
        "latitude": "37.6532513",
        "name": "창동",
        "koName": "창동",
        "enName": "Chang-dong",
        "displayCode": "412"
      },
      {
        "id": "413",
        "logicalLine": {
          "code": "4",
          "name": "4호선"
        },
        "longitude": "127.0347017",
        "latitude": "37.6485878",
        "name": "쌍문",
        "koName": "쌍문",
        "enName": "Ssangmun",
        "displayCode": "413"
      },
      {
        "id": "414",
        "logicalLine": {
          "code": "4",
          "name": "4호선"
        },
        "longitude": "127.0254732",
        "latitude": "37.637828",
        "name": "수유",
        "koName": "수유",
        "enName": "Suyu",
        "displayCode": "414"
      },
      {
        "id": "415",
        "logicalLine": {
          "code": "4",
          "name": "4호선"
        },
        "longitude": "127.0261186",
        "latitude": "37.6264529",
        "name": "미아",
        "koName": "미아",
        "enName": "Mia",
        "displayCode": "415"
      },
      {
        "id": "416",
        "logicalLine": {
          "code": "4",
          "name": "4호선"
        },
        "longitude": "127.030097",
        "latitude": "37.6132608",
        "name": "미아사거리",
        "koName": "미아사거리",
        "enName": "Miasamgeori",
        "displayCode": "416"
      },
      {
        "id": "417",
        "logicalLine": {
          "code": "4",
          "name": "4호선"
        },
        "longitude": "127.0249589",
        "latitude": "37.6032454",
        "name": "길음",
        "koName": "길음",
        "enName": "Gireum",
        "displayCode": "417"
      },
      {
        "id": "11322",
        "logicalLine": {
          "code": "113",
          "name": "우이신설선"
        },
        "longitude": "127.013278",
        "latitude": "37.6560475",
        "name": "솔밭공원",
        "koName": "솔밭공원",
        "enName": "Solbat Park",
        "displayCode": "S111"
      },
      {
        "id": "418",
        "logicalLine": {
          "code": "4",
          "name": "4호선"
        },
        "longitude": "127.0165388",
        "latitude": "37.592709",
        "name": "성신여대입구",
        "koName": "성신여대입구",
        "enName": "Sungshin Women's Univ.",
        "displayCode": "418"
      },
      {
        "id": "11321",
        "logicalLine": {
          "code": "113",
          "name": "우이신설선"
        },
        "longitude": "127.0127977",
        "latitude": "37.6629089",
        "name": "북한산우이",
        "koName": "북한산우이",
        "enName": "Bukhansan Ui",
        "displayCode": "S110"
      },
      {
        "id": "419",
        "logicalLine": {
          "code": "4",
          "name": "4호선"
        },
        "longitude": "127.0062053",
        "latitude": "37.5884819",
        "name": "한성대입구",
        "koName": "한성대입구",
        "enName": "Hansung Univ.",
        "displayCode": "419"
      },
      {
        "id": "11324",
        "logicalLine": {
          "code": "113",
          "name": "우이신설선"
        },
        "longitude": "127.01681",
        "latitude": "37.6415589",
        "name": "가오리",
        "koName": "가오리",
        "enName": "Gaori",
        "displayCode": "S113"
      },
      {
        "id": "11323",
        "logicalLine": {
          "code": "113",
          "name": "우이신설선"
        },
        "longitude": "127.0136693",
        "latitude": "37.6495536",
        "name": "419민주묘지",
        "koName": "419민주묘지",
        "enName": "April 19th National Cemetery",
        "displayCode": "S112"
      },
      {
        "id": "11326",
        "logicalLine": {
          "code": "113",
          "name": "우이신설선"
        },
        "longitude": "127.0181637",
        "latitude": "37.6269221",
        "name": "삼양",
        "koName": "삼양",
        "enName": "Samyang",
        "displayCode": "S115"
      },
      {
        "id": "11325",
        "logicalLine": {
          "code": "113",
          "name": "우이신설선"
        },
        "longitude": "127.0175118",
        "latitude": "37.6341179",
        "name": "화계",
        "koName": "화계",
        "enName": "Hwagye",
        "displayCode": "S114"
      },
      {
        "id": "420",
        "logicalLine": {
          "code": "4",
          "name": "4호선"
        },
        "longitude": "127.0018932",
        "latitude": "37.58217",
        "name": "혜화",
        "koName": "혜화",
        "enName": "Hyehwa",
        "displayCode": "420"
      },
      {
        "id": "421",
        "logicalLine": {
          "code": "4",
          "name": "4호선"
        },
        "longitude": "127.0091161",
        "latitude": "37.5711345",
        "name": "동대문",
        "koName": "동대문",
        "enName": "Dongdaemun",
        "displayCode": "421"
      },
      {
        "id": "422",
        "logicalLine": {
          "code": "4",
          "name": "4호선"
        },
        "longitude": "127.0078233",
        "latitude": "37.5651518",
        "name": "동대문역사문화공원",
        "koName": "동대문역사문화공원",
        "enName": "Dongdaemun History & Culture Park",
        "displayCode": "422"
      },
      {
        "id": "423",
        "logicalLine": {
          "code": "4",
          "name": "4호선"
        },
        "longitude": "126.994207",
        "latitude": "37.5612691",
        "name": "충무로",
        "koName": "충무로",
        "enName": "Chungmuro",
        "displayCode": "423"
      },
      {
        "id": "424",
        "logicalLine": {
          "code": "4",
          "name": "4호선"
        },
        "longitude": "126.9864651",
        "latitude": "37.5609721",
        "name": "명동",
        "koName": "명동",
        "enName": "Myeong-dong",
        "displayCode": "424"
      },
      {
        "id": "425",
        "logicalLine": {
          "code": "4",
          "name": "4호선"
        },
        "longitude": "126.9785585",
        "latitude": "37.5587761",
        "name": "회현",
        "koName": "회현",
        "enName": "Hoehyeon",
        "displayCode": "425"
      },
      {
        "id": "426",
        "logicalLine": {
          "code": "4",
          "name": "4호선"
        },
        "longitude": "126.9727132",
        "latitude": "37.5535145",
        "name": "서울역",
        "koName": "서울역",
        "enName": "Seoul Station",
        "displayCode": "426"
      },
      {
        "id": "11331",
        "logicalLine": {
          "code": "113",
          "name": "우이신설선"
        },
        "longitude": "127.016544",
        "latitude": "37.592412",
        "name": "성신여대입구",
        "koName": "성신여대입구",
        "enName": "Sungshin Women's Univ.",
        "displayCode": "S120"
      },
      {
        "id": "427",
        "logicalLine": {
          "code": "4",
          "name": "4호선"
        },
        "longitude": "126.9721144",
        "latitude": "37.5445916",
        "name": "숙대입구",
        "koName": "숙대입구",
        "enName": "Sookmyung Women's Univ.",
        "displayCode": "427"
      },
      {
        "id": "11330",
        "logicalLine": {
          "code": "113",
          "name": "우이신설선"
        },
        "longitude": "127.0134944",
        "latitude": "37.6026666",
        "name": "정릉",
        "koName": "정릉",
        "enName": "Jeongneung",
        "displayCode": "S119"
      },
      {
        "id": "428",
        "logicalLine": {
          "code": "4",
          "name": "4호선"
        },
        "longitude": "126.9729869",
        "latitude": "37.5345468",
        "name": "삼각지",
        "koName": "삼각지",
        "enName": "Samgakji",
        "displayCode": "428"
      },
      {
        "id": "11333",
        "logicalLine": {
          "code": "113",
          "name": "우이신설선"
        },
        "longitude": "127.0232133",
        "latitude": "37.576793",
        "name": "신설동",
        "koName": "신설동",
        "enName": "Sinseol-dong",
        "displayCode": "S122"
      },
      {
        "id": "429",
        "logicalLine": {
          "code": "4",
          "name": "4호선"
        },
        "longitude": "126.9679481",
        "latitude": "37.529241",
        "name": "신용산",
        "koName": "신용산",
        "enName": "Sinyongsan",
        "displayCode": "429"
      },
      {
        "id": "11332",
        "logicalLine": {
          "code": "113",
          "name": "우이신설선"
        },
        "longitude": "127.0195556",
        "latitude": "37.5850248",
        "name": "보문",
        "koName": "보문",
        "enName": "Bomun",
        "displayCode": "S121"
      },
      {
        "id": "430",
        "logicalLine": {
          "code": "4",
          "name": "4호선"
        },
        "longitude": "126.974396",
        "latitude": "37.5224265",
        "name": "이촌",
        "koName": "이촌",
        "enName": "Ichon",
        "displayCode": "430"
      },
      {
        "id": "431",
        "logicalLine": {
          "code": "4",
          "name": "4호선"
        },
        "longitude": "126.980341",
        "latitude": "37.5029147",
        "name": "동작",
        "koName": "동작",
        "enName": "Dongjak",
        "displayCode": "431"
      },
      {
        "id": "432",
        "logicalLine": {
          "code": "4",
          "name": "4호선"
        },
        "longitude": "126.982193",
        "latitude": "37.4868026",
        "name": "총신대입구(이수)",
        "koName": "총신대입구(이수)",
        "enName": "Chongshin Univ.(Isu)",
        "displayCode": "432"
      },
      {
        "id": "433",
        "logicalLine": {
          "code": "4",
          "name": "4호선"
        },
        "longitude": "126.9816679",
        "latitude": "37.4767975",
        "name": "사당",
        "koName": "사당",
        "enName": "Sadang",
        "displayCode": "433"
      },
      {
        "id": "434",
        "logicalLine": {
          "code": "4",
          "name": "4호선"
        },
        "longitude": "126.9891138",
        "latitude": "37.4642465",
        "name": "남태령",
        "koName": "남태령",
        "enName": "Namtaeryeong",
        "displayCode": "434"
      },
      {
        "id": "435",
        "logicalLine": {
          "code": "4",
          "name": "4호선"
        },
        "longitude": "127.0021081",
        "latitude": "37.451785",
        "name": "선바위",
        "koName": "선바위",
        "enName": "Seonbawi",
        "displayCode": "435"
      },
      {
        "id": "436",
        "logicalLine": {
          "code": "4",
          "name": "4호선"
        },
        "longitude": "127.0077671",
        "latitude": "37.443959",
        "name": "경마공원",
        "koName": "경마공원",
        "enName": "Seoul Racecourse Park",
        "displayCode": "436"
      },
      {
        "id": "437",
        "logicalLine": {
          "code": "4",
          "name": "4호선"
        },
        "longitude": "127.0065571",
        "latitude": "37.435724",
        "name": "대공원",
        "koName": "대공원",
        "enName": "Seoul Grand Park",
        "displayCode": "437"
      },
      {
        "id": "438",
        "logicalLine": {
          "code": "4",
          "name": "4호선"
        },
        "longitude": "126.9965421",
        "latitude": "37.432785",
        "name": "과천",
        "koName": "과천",
        "enName": "Gwacheon",
        "displayCode": "438"
      },
      {
        "id": "439",
        "logicalLine": {
          "code": "4",
          "name": "4호선"
        },
        "longitude": "126.9897781",
        "latitude": "37.426502",
        "name": "정부과천청사",
        "koName": "정부과천청사",
        "enName": "Government Complex Gwacheon",
        "displayCode": "439"
      },
      {
        "id": "440",
        "logicalLine": {
          "code": "4",
          "name": "4호선"
        },
        "longitude": "126.9771101",
        "latitude": "37.401859",
        "name": "인덕원",
        "koName": "인덕원",
        "enName": "Indeogwon",
        "displayCode": "440"
      },
      {
        "id": "441",
        "logicalLine": {
          "code": "4",
          "name": "4호선"
        },
        "longitude": "126.9638983",
        "latitude": "37.3943456",
        "name": "평촌",
        "koName": "평촌",
        "enName": "Pyeongchon",
        "displayCode": "441"
      },
      {
        "id": "442",
        "logicalLine": {
          "code": "4",
          "name": "4호선"
        },
        "longitude": "126.9507657",
        "latitude": "37.3897935",
        "name": "범계",
        "koName": "범계",
        "enName": "Beomgye",
        "displayCode": "442"
      },
      {
        "id": "201",
        "logicalLine": {
          "code": "2",
          "name": "2호선"
        },
        "longitude": "126.975278",
        "latitude": "37.5635402",
        "name": "시청",
        "koName": "시청",
        "enName": "City Hall",
        "displayCode": "201"
      },
      {
        "id": "443",
        "logicalLine": {
          "code": "4",
          "name": "4호선"
        },
        "longitude": "126.9435118",
        "latitude": "37.3723505",
        "name": "금정",
        "koName": "금정",
        "enName": "Geumjeong",
        "displayCode": "443"
      },
      {
        "id": "202",
        "logicalLine": {
          "code": "2",
          "name": "2호선"
        },
        "longitude": "126.9822413",
        "latitude": "37.5660349",
        "name": "을지로입구",
        "koName": "을지로입구",
        "enName": "Euljiro 1(il)-ga",
        "displayCode": "202"
      },
      {
        "id": "444",
        "logicalLine": {
          "code": "4",
          "name": "4호선"
        },
        "longitude": "126.9329866",
        "latitude": "37.3580316",
        "name": "산본",
        "koName": "산본",
        "enName": "Sanbon",
        "displayCode": "444"
      },
      {
        "id": "203",
        "logicalLine": {
          "code": "2",
          "name": "2호선"
        },
        "longitude": "126.9910513",
        "latitude": "37.566288",
        "name": "을지로3가",
        "koName": "을지로3가",
        "enName": "Euljiro 3(sam)-ga",
        "displayCode": "203"
      },
      {
        "id": "445",
        "logicalLine": {
          "code": "4",
          "name": "4호선"
        },
        "longitude": "126.9256222",
        "latitude": "37.3506088",
        "name": "수리산",
        "koName": "수리산",
        "enName": "Surisan",
        "displayCode": "445"
      },
      {
        "id": "204",
        "logicalLine": {
          "code": "2",
          "name": "2호선"
        },
        "longitude": "126.9977332",
        "latitude": "37.5666212",
        "name": "을지로4가",
        "koName": "을지로4가",
        "enName": "Euljiro 4(sa)-ga",
        "displayCode": "204"
      },
      {
        "id": "446",
        "logicalLine": {
          "code": "4",
          "name": "4호선"
        },
        "longitude": "126.9169139",
        "latitude": "37.3280071",
        "name": "대야미",
        "koName": "대야미",
        "enName": "Daeyami",
        "displayCode": "446"
      },
      {
        "id": "205",
        "logicalLine": {
          "code": "2",
          "name": "2호선"
        },
        "longitude": "127.0089225",
        "latitude": "37.5656726",
        "name": "동대문역사문화공원",
        "koName": "동대문역사문화공원",
        "enName": "Dongdaemun History & Culture Park",
        "displayCode": "205"
      },
      {
        "id": "447",
        "logicalLine": {
          "code": "4",
          "name": "4호선"
        },
        "longitude": "126.9037869",
        "latitude": "37.3123686",
        "name": "반월",
        "koName": "반월",
        "enName": "Banwol",
        "displayCode": "447"
      },
      {
        "id": "206",
        "logicalLine": {
          "code": "2",
          "name": "2호선"
        },
        "longitude": "127.0194523",
        "latitude": "37.5656686",
        "name": "신당",
        "koName": "신당",
        "enName": "Sindang",
        "displayCode": "206"
      },
      {
        "id": "448",
        "logicalLine": {
          "code": "4",
          "name": "4호선"
        },
        "longitude": "126.8666096",
        "latitude": "37.3028535",
        "name": "상록수",
        "koName": "상록수",
        "enName": "Sangnoksu",
        "displayCode": "448"
      },
      {
        "id": "207",
        "logicalLine": {
          "code": "2",
          "name": "2호선"
        },
        "longitude": "127.0294629",
        "latitude": "37.5643212",
        "name": "상왕십리",
        "koName": "상왕십리",
        "enName": "Sangwangsimni",
        "displayCode": "207"
      },
      {
        "id": "449",
        "logicalLine": {
          "code": "4",
          "name": "4호선"
        },
        "longitude": "126.8538834",
        "latitude": "37.3094844",
        "name": "한대앞",
        "koName": "한대앞",
        "enName": "Hangyang Univ. at Ansan",
        "displayCode": "449"
      },
      {
        "id": "208",
        "logicalLine": {
          "code": "2",
          "name": "2호선"
        },
        "longitude": "127.0372542",
        "latitude": "37.5612277",
        "name": "왕십리",
        "koName": "왕십리",
        "enName": "Wangsimni",
        "displayCode": "208"
      },
      {
        "id": "209",
        "logicalLine": {
          "code": "2",
          "name": "2호선"
        },
        "longitude": "127.0436383",
        "latitude": "37.5556316",
        "name": "한양대",
        "koName": "한양대",
        "enName": "Hanyang Univ.",
        "displayCode": "209"
      },
      {
        "id": "20236",
        "logicalLine": {
          "code": "22",
          "name": "인천2호선"
        },
        "longitude": "126.7595937",
        "latitude": "37.4396638",
        "name": "운연",
        "koName": "운연",
        "enName": "Unyeon",
        "displayCode": "I227"
      },
      {
        "id": "20235",
        "logicalLine": {
          "code": "22",
          "name": "인천2호선"
        },
        "longitude": "126.7528261",
        "latitude": "37.4484981",
        "name": "인천대공원",
        "koName": "인천대공원",
        "enName": "Incheon Grand Park",
        "displayCode": "I226"
      },
      {
        "id": "20234",
        "logicalLine": {
          "code": "22",
          "name": "인천2호선"
        },
        "longitude": "126.7366655",
        "latitude": "37.448176",
        "name": "남동구청",
        "koName": "남동구청",
        "enName": "Namdong-gu Office",
        "displayCode": "I225"
      },
      {
        "id": "20233",
        "logicalLine": {
          "code": "22",
          "name": "인천2호선"
        },
        "longitude": "126.7317828",
        "latitude": "37.4549676",
        "name": "만수",
        "koName": "만수",
        "enName": "Mansu",
        "displayCode": "I224"
      },
      {
        "id": "20232",
        "logicalLine": {
          "code": "22",
          "name": "인천2호선"
        },
        "longitude": "126.7196193",
        "latitude": "37.4558728",
        "name": "모래내시장",
        "koName": "모래내시장",
        "enName": "Moraenae Market",
        "displayCode": "I223"
      },
      {
        "id": "20231",
        "logicalLine": {
          "code": "22",
          "name": "인천2호선"
        },
        "longitude": "126.7107966",
        "latitude": "37.4567527",
        "name": "석천사거리",
        "koName": "석천사거리",
        "enName": "Seokcheon Sageori",
        "displayCode": "I222"
      },
      {
        "id": "20230",
        "logicalLine": {
          "code": "22",
          "name": "인천2호선"
        },
        "longitude": "126.7011404",
        "latitude": "37.4568992",
        "name": "인천시청",
        "koName": "인천시청",
        "enName": "Incheon City Hall",
        "displayCode": "I221"
      },
      {
        "id": "450",
        "logicalLine": {
          "code": "4",
          "name": "4호선"
        },
        "longitude": "126.8389741",
        "latitude": "37.3160361",
        "name": "중앙",
        "koName": "중앙",
        "enName": "Jungang",
        "displayCode": "450"
      },
      {
        "id": "451",
        "logicalLine": {
          "code": "4",
          "name": "4호선"
        },
        "longitude": "126.8234085",
        "latitude": "37.3168245",
        "name": "고잔",
        "koName": "고잔",
        "enName": "Gojan",
        "displayCode": "451"
      },
      {
        "id": "210",
        "logicalLine": {
          "code": "2",
          "name": "2호선"
        },
        "longitude": "127.0474048",
        "latitude": "37.5472059",
        "name": "뚝섬",
        "koName": "뚝섬",
        "enName": "Ttukseom",
        "displayCode": "210"
      },
      {
        "id": "452",
        "logicalLine": {
          "code": "4",
          "name": "4호선"
        },
        "longitude": "126.8062464",
        "latitude": "37.3205511",
        "name": "초지",
        "koName": "초지",
        "enName": "Choji",
        "displayCode": "452"
      },
      {
        "id": "211",
        "logicalLine": {
          "code": "2",
          "name": "2호선"
        },
        "longitude": "127.0559819",
        "latitude": "37.5445688",
        "name": "성수",
        "koName": "성수",
        "enName": "Seongsu",
        "displayCode": "211"
      },
      {
        "id": "453",
        "logicalLine": {
          "code": "4",
          "name": "4호선"
        },
        "longitude": "126.7892386",
        "latitude": "37.326801",
        "name": "안산",
        "koName": "안산",
        "enName": "Ansan",
        "displayCode": "453"
      },
      {
        "id": "212",
        "logicalLine": {
          "code": "2",
          "name": "2호선"
        },
        "longitude": "127.0692761",
        "latitude": "37.5403719",
        "name": "건대입구",
        "koName": "건대입구",
        "enName": "Konkuk Univ.",
        "displayCode": "212"
      },
      {
        "id": "454",
        "logicalLine": {
          "code": "4",
          "name": "4호선"
        },
        "longitude": "126.767341",
        "latitude": "37.3374763",
        "name": "신길온천",
        "koName": "신길온천",
        "enName": "Singil oncheon",
        "displayCode": "454"
      },
      {
        "id": "213",
        "logicalLine": {
          "code": "2",
          "name": "2호선"
        },
        "longitude": "127.0861583",
        "latitude": "37.5371437",
        "name": "구의",
        "koName": "구의",
        "enName": "Guui",
        "displayCode": "213"
      },
      {
        "id": "455",
        "logicalLine": {
          "code": "4",
          "name": "4호선"
        },
        "longitude": "126.7433066",
        "latitude": "37.3516989",
        "name": "정왕",
        "koName": "정왕",
        "enName": "Jeongwang",
        "displayCode": "455"
      },
      {
        "id": "214",
        "logicalLine": {
          "code": "2",
          "name": "2호선"
        },
        "longitude": "127.0946953",
        "latitude": "37.5350976",
        "name": "강변",
        "koName": "강변",
        "enName": "Gangbyeon",
        "displayCode": "214"
      },
      {
        "id": "456",
        "logicalLine": {
          "code": "4",
          "name": "4호선"
        },
        "longitude": "126.7384503",
        "latitude": "37.3617848",
        "name": "오이도",
        "koName": "오이도",
        "enName": "Oido",
        "displayCode": "456"
      },
      {
        "id": "215",
        "logicalLine": {
          "code": "2",
          "name": "2호선"
        },
        "longitude": "127.103811",
        "latitude": "37.5206599",
        "name": "잠실나루",
        "koName": "잠실나루",
        "enName": "Jamsillaru",
        "displayCode": "215"
      },
      {
        "id": "216",
        "logicalLine": {
          "code": "2",
          "name": "2호선"
        },
        "longitude": "127.1001714",
        "latitude": "37.5133497",
        "name": "잠실",
        "koName": "잠실",
        "enName": "Jamsil",
        "displayCode": "216"
      },
      {
        "id": "217",
        "logicalLine": {
          "code": "2",
          "name": "2호선"
        },
        "longitude": "127.0856011",
        "latitude": "37.5116235",
        "name": "잠실새내",
        "koName": "잠실새내",
        "enName": "Jamsilsaenae",
        "displayCode": "217"
      },
      {
        "id": "218",
        "logicalLine": {
          "code": "2",
          "name": "2호선"
        },
        "longitude": "127.0736743",
        "latitude": "37.5110373",
        "name": "종합운동장",
        "koName": "종합운동장",
        "enName": "Sports Complex",
        "displayCode": "218"
      },
      {
        "id": "219",
        "logicalLine": {
          "code": "2",
          "name": "2호선"
        },
        "longitude": "127.0631862",
        "latitude": "37.5088721",
        "name": "삼성",
        "koName": "삼성",
        "enName": "Samseong",
        "displayCode": "219"
      },
      {
        "id": "11520",
        "logicalLine": {
          "code": "115",
          "name": "김포골드라인"
        },
        "longitude": "126.8026991",
        "latitude": "37.562326",
        "name": "김포공항",
        "koName": "김포공항",
        "enName": "Gimpo Int'l Airport",
        "displayCode": "G109"
      },
      {
        "id": "220",
        "logicalLine": {
          "code": "2",
          "name": "2호선"
        },
        "longitude": "127.0492806",
        "latitude": "37.504585",
        "name": "선릉",
        "koName": "선릉",
        "enName": "Seolleung",
        "displayCode": "220"
      },
      {
        "id": "221",
        "logicalLine": {
          "code": "2",
          "name": "2호선"
        },
        "longitude": "127.0363766",
        "latitude": "37.5006431",
        "name": "역삼",
        "koName": "역삼",
        "enName": "Yeoksam",
        "displayCode": "221"
      },
      {
        "id": "222",
        "logicalLine": {
          "code": "2",
          "name": "2호선"
        },
        "longitude": "127.027619",
        "latitude": "37.4979518",
        "name": "강남",
        "koName": "강남",
        "enName": "Gangnam",
        "displayCode": "222"
      },
      {
        "id": "223",
        "logicalLine": {
          "code": "2",
          "name": "2호선"
        },
        "longitude": "127.0143955",
        "latitude": "37.4939022",
        "name": "교대",
        "koName": "교대",
        "enName": "Seoul Nat'l Univ. of Education",
        "displayCode": "223"
      },
      {
        "id": "224",
        "logicalLine": {
          "code": "2",
          "name": "2호선"
        },
        "longitude": "127.0077018",
        "latitude": "37.4918518",
        "name": "서초",
        "koName": "서초",
        "enName": "Seocho",
        "displayCode": "224"
      },
      {
        "id": "225",
        "logicalLine": {
          "code": "2",
          "name": "2호선"
        },
        "longitude": "126.997667",
        "latitude": "37.4814956",
        "name": "방배",
        "koName": "방배",
        "enName": "Bangbae",
        "displayCode": "225"
      },
      {
        "id": "226",
        "logicalLine": {
          "code": "2",
          "name": "2호선"
        },
        "longitude": "126.9813633",
        "latitude": "37.4765746",
        "name": "사당",
        "koName": "사당",
        "enName": "Sadang",
        "displayCode": "226"
      },
      {
        "id": "227",
        "logicalLine": {
          "code": "2",
          "name": "2호선"
        },
        "longitude": "126.9634281",
        "latitude": "37.4771195",
        "name": "낙성대",
        "koName": "낙성대",
        "enName": "Nakseongdae",
        "displayCode": "227"
      },
      {
        "id": "228",
        "logicalLine": {
          "code": "2",
          "name": "2호선"
        },
        "longitude": "126.9527295",
        "latitude": "37.4812072",
        "name": "서울대입구",
        "koName": "서울대입구",
        "enName": "Seoul Nat'l Univ.",
        "displayCode": "228"
      },
      {
        "id": "229",
        "logicalLine": {
          "code": "2",
          "name": "2호선"
        },
        "longitude": "126.9415857",
        "latitude": "37.4824773",
        "name": "봉천",
        "koName": "봉천",
        "enName": "Bongcheon",
        "displayCode": "229"
      },
      {
        "id": "230",
        "logicalLine": {
          "code": "2",
          "name": "2호선"
        },
        "longitude": "126.9296992",
        "latitude": "37.4842313",
        "name": "신림",
        "koName": "신림",
        "enName": "Sillim",
        "displayCode": "230"
      },
      {
        "id": "231",
        "logicalLine": {
          "code": "2",
          "name": "2호선"
        },
        "longitude": "126.9133458",
        "latitude": "37.4875627",
        "name": "신대방",
        "koName": "신대방",
        "enName": "Sindaebang",
        "displayCode": "231"
      },
      {
        "id": "232",
        "logicalLine": {
          "code": "2",
          "name": "2호선"
        },
        "longitude": "126.9015943",
        "latitude": "37.4852148",
        "name": "구로디지털단지",
        "koName": "구로디지털단지",
        "enName": "Guro Digital Complex",
        "displayCode": "232"
      },
      {
        "id": "233",
        "logicalLine": {
          "code": "2",
          "name": "2호선"
        },
        "longitude": "126.8948904",
        "latitude": "37.4933931",
        "name": "대림",
        "koName": "대림",
        "enName": "Daerim",
        "displayCode": "233"
      },
      {
        "id": "234",
        "logicalLine": {
          "code": "2",
          "name": "2호선"
        },
        "longitude": "126.8911141",
        "latitude": "37.5086564",
        "name": "신도림",
        "koName": "신도림",
        "enName": "Sindorim",
        "displayCode": "234"
      },
      {
        "id": "235",
        "logicalLine": {
          "code": "2",
          "name": "2호선"
        },
        "longitude": "126.8948029",
        "latitude": "37.5180068",
        "name": "문래",
        "koName": "문래",
        "enName": "Mullae",
        "displayCode": "235"
      },
      {
        "id": "236",
        "logicalLine": {
          "code": "2",
          "name": "2호선"
        },
        "longitude": "126.8965645",
        "latitude": "37.525469",
        "name": "영등포구청",
        "koName": "영등포구청",
        "enName": "Yeongdeungpo-gu Office",
        "displayCode": "236"
      },
      {
        "id": "237",
        "logicalLine": {
          "code": "2",
          "name": "2호선"
        },
        "longitude": "126.9026823",
        "latitude": "37.5348752",
        "name": "당산",
        "koName": "당산",
        "enName": "Dangsan",
        "displayCode": "237"
      },
      {
        "id": "238",
        "logicalLine": {
          "code": "2",
          "name": "2호선"
        },
        "longitude": "126.9145231",
        "latitude": "37.5499346",
        "name": "합정",
        "koName": "합정",
        "enName": "Hapjeong",
        "displayCode": "238"
      },
      {
        "id": "239",
        "logicalLine": {
          "code": "2",
          "name": "2호선"
        },
        "longitude": "126.9240194",
        "latitude": "37.5570156",
        "name": "홍대입구",
        "koName": "홍대입구",
        "enName": "Hongik Univ.",
        "displayCode": "239"
      },
      {
        "id": "1909",
        "logicalLine": {
          "code": "109",
          "name": "신분당선"
        },
        "longitude": "127.0247661",
        "latitude": "37.503932",
        "name": "신논현",
        "koName": "신논현",
        "enName": "Sinnonhyeon",
        "displayCode": "D06"
      },
      {
        "id": "1908",
        "logicalLine": {
          "code": "109",
          "name": "신분당선"
        },
        "longitude": "127.0216681",
        "latitude": "37.510404",
        "name": "논현",
        "koName": "논현",
        "enName": "Nonhyeon",
        "displayCode": "D05"
      },
      {
        "id": "240",
        "logicalLine": {
          "code": "2",
          "name": "2호선"
        },
        "longitude": "126.9368495",
        "latitude": "37.5551833",
        "name": "신촌",
        "koName": "신촌",
        "enName": "Sinchon",
        "displayCode": "240"
      },
      {
        "id": "241",
        "logicalLine": {
          "code": "2",
          "name": "2호선"
        },
        "longitude": "126.9462596",
        "latitude": "37.5567836",
        "name": "이대",
        "koName": "이대",
        "enName": "Ewha Womans Univ.",
        "displayCode": "241"
      },
      {
        "id": "242",
        "logicalLine": {
          "code": "2",
          "name": "2호선"
        },
        "longitude": "126.956132",
        "latitude": "37.5573879",
        "name": "아현",
        "koName": "아현",
        "enName": "Ahyeon",
        "displayCode": "242"
      },
      {
        "id": "243",
        "logicalLine": {
          "code": "2",
          "name": "2호선"
        },
        "longitude": "126.9643319",
        "latitude": "37.5596923",
        "name": "충정로",
        "koName": "충정로",
        "enName": "Chungjeongno",
        "displayCode": "243"
      },
      {
        "id": "1907",
        "logicalLine": {
          "code": "109",
          "name": "신분당선"
        },
        "longitude": "127.0195781",
        "latitude": "37.516021",
        "name": "신사",
        "koName": "신사",
        "enName": "Sinsa",
        "displayCode": "D04"
      },
      {
        "id": "1919",
        "logicalLine": {
          "code": "109",
          "name": "신분당선"
        },
        "longitude": "127.0803411",
        "latitude": "37.313557",
        "name": "성복",
        "koName": "성복",
        "enName": "Seongbok",
        "displayCode": "D16"
      },
      {
        "id": "251",
        "logicalLine": {
          "code": "2",
          "name": "2호선"
        },
        "longitude": "127.0508534",
        "latitude": "37.5621786",
        "name": "용답",
        "koName": "용답",
        "enName": "Yongdap",
        "displayCode": "211-1"
      },
      {
        "id": "252",
        "logicalLine": {
          "code": "2",
          "name": "2호선"
        },
        "longitude": "127.0470955",
        "latitude": "37.5698004",
        "name": "신답",
        "koName": "신답",
        "enName": "Sindap",
        "displayCode": "211-2"
      },
      {
        "id": "253",
        "logicalLine": {
          "code": "2",
          "name": "2호선"
        },
        "longitude": "127.0252716",
        "latitude": "37.5746144",
        "name": "신설동",
        "koName": "신설동",
        "enName": "Sinseol-dong",
        "displayCode": "211-4"
      },
      {
        "id": "1910",
        "logicalLine": {
          "code": "109",
          "name": "신분당선"
        },
        "longitude": "127.0283576",
        "latitude": "37.4963731",
        "name": "강남",
        "koName": "강남",
        "enName": "Gangnam",
        "displayCode": "D07"
      },
      {
        "id": "254",
        "logicalLine": {
          "code": "2",
          "name": "2호선"
        },
        "longitude": "127.0385474",
        "latitude": "37.5739644",
        "name": "용두",
        "koName": "용두",
        "enName": "Yongdu",
        "displayCode": "211-3"
      },
      {
        "id": "1918",
        "logicalLine": {
          "code": "109",
          "name": "신분당선"
        },
        "longitude": "127.0948906",
        "latitude": "37.3226221",
        "name": "수지구청",
        "koName": "수지구청",
        "enName": "Suji-gu Office",
        "displayCode": "D15"
      },
      {
        "id": "1917",
        "logicalLine": {
          "code": "109",
          "name": "신분당선"
        },
        "longitude": "127.1028451",
        "latitude": "37.337795",
        "name": "동천",
        "koName": "동천",
        "enName": "Dongchun",
        "displayCode": "D14"
      },
      {
        "id": "1916",
        "logicalLine": {
          "code": "109",
          "name": "신분당선"
        },
        "longitude": "127.1089129",
        "latitude": "37.3488461",
        "name": "미금",
        "koName": "미금",
        "enName": "Migeum",
        "displayCode": "D13"
      },
      {
        "id": "1915",
        "logicalLine": {
          "code": "109",
          "name": "신분당선"
        },
        "longitude": "127.108455",
        "latitude": "37.3677228",
        "name": "정자",
        "koName": "정자",
        "enName": "Jeongja",
        "displayCode": "D12"
      },
      {
        "id": "1914",
        "logicalLine": {
          "code": "109",
          "name": "신분당선"
        },
        "longitude": "127.1111601",
        "latitude": "37.3947763",
        "name": "판교",
        "koName": "판교",
        "enName": "Pangyo",
        "displayCode": "D11"
      },
      {
        "id": "1913",
        "logicalLine": {
          "code": "109",
          "name": "신분당선"
        },
        "longitude": "127.0546971",
        "latitude": "37.4482647",
        "name": "청계산입구",
        "koName": "청계산입구",
        "enName": "Cheonggyesan",
        "displayCode": "D10"
      },
      {
        "id": "1912",
        "logicalLine": {
          "code": "109",
          "name": "신분당선"
        },
        "longitude": "127.038396",
        "latitude": "37.4699132",
        "name": "양재시민의숲",
        "koName": "양재시민의숲",
        "enName": "Yangjae Citizen's Forest",
        "displayCode": "D09"
      },
      {
        "id": "1911",
        "logicalLine": {
          "code": "109",
          "name": "신분당선"
        },
        "longitude": "127.0348766",
        "latitude": "37.4835997",
        "name": "양재",
        "koName": "양재",
        "enName": "Yangjae",
        "displayCode": "D08"
      },
      {
        "id": "11290",
        "logicalLine": {
          "code": "112",
          "name": "경강선"
        },
        "longitude": "127.12054",
        "latitude": "37.3947496",
        "name": "성남",
        "koName": "성남",
        "enName": "Seongnam",
        "displayCode": "K410"
      },
      {
        "id": "261",
        "logicalLine": {
          "code": "2",
          "name": "2호선"
        },
        "longitude": "126.8826425",
        "latitude": "37.5144737",
        "name": "도림천",
        "koName": "도림천",
        "enName": "Dorimcheon",
        "displayCode": "234-1"
      },
      {
        "id": "262",
        "logicalLine": {
          "code": "2",
          "name": "2호선"
        },
        "longitude": "126.8656677",
        "latitude": "37.5123852",
        "name": "양천구청",
        "koName": "양천구청",
        "enName": "Yangcheon-gu Office",
        "displayCode": "234-2"
      },
      {
        "id": "263",
        "logicalLine": {
          "code": "2",
          "name": "2호선"
        },
        "longitude": "126.852868",
        "latitude": "37.5202337",
        "name": "신정네거리",
        "koName": "신정네거리",
        "enName": "Sinjeongnegeori",
        "displayCode": "234-3"
      },
      {
        "id": "264",
        "logicalLine": {
          "code": "2",
          "name": "2호선"
        },
        "longitude": "126.8469288",
        "latitude": "37.5314047",
        "name": "까치산",
        "koName": "까치산",
        "enName": "Kkachisan",
        "displayCode": "234-4"
      },
      {
        "id": "1921",
        "logicalLine": {
          "code": "109",
          "name": "신분당선"
        },
        "longitude": "127.051533",
        "latitude": "37.2885031",
        "name": "광교중앙",
        "koName": "광교중앙",
        "enName": "GwanggyoJungang",
        "displayCode": "D18"
      },
      {
        "id": "1920",
        "logicalLine": {
          "code": "109",
          "name": "신분당선"
        },
        "longitude": "127.0693559",
        "latitude": "37.2978736",
        "name": "상현",
        "koName": "상현",
        "enName": "Sanghyeon",
        "displayCode": "D17"
      },
      {
        "id": "1922",
        "logicalLine": {
          "code": "109",
          "name": "신분당선"
        },
        "longitude": "127.0441981",
        "latitude": "37.302087",
        "name": "광교",
        "koName": "광교",
        "enName": "Gwanggyo",
        "displayCode": "D19"
      },
      {
        "id": "1701",
        "logicalLine": {
          "code": "107",
          "name": "에버라인"
        },
        "longitude": "127.1167491",
        "latitude": "37.2754707",
        "name": "기흥",
        "koName": "기흥",
        "enName": "Giheung",
        "displayCode": "Y110"
      },
      {
        "id": "1709",
        "logicalLine": {
          "code": "107",
          "name": "에버라인"
        },
        "longitude": "127.1902816",
        "latitude": "37.238068",
        "name": "명지대",
        "koName": "명지대",
        "enName": "Myongji Univ.",
        "displayCode": "Y118"
      },
      {
        "id": "1708",
        "logicalLine": {
          "code": "107",
          "name": "에버라인"
        },
        "longitude": "127.1788391",
        "latitude": "37.2393998",
        "name": "시청용인대",
        "koName": "시청용인대",
        "enName": "City Hall·YongIn Univ.",
        "displayCode": "Y117"
      },
      {
        "id": "1707",
        "logicalLine": {
          "code": "107",
          "name": "에버라인"
        },
        "longitude": "127.1681063",
        "latitude": "37.2421434",
        "name": "삼가",
        "koName": "삼가",
        "enName": "Samga",
        "displayCode": "Y116"
      },
      {
        "id": "1706",
        "logicalLine": {
          "code": "107",
          "name": "에버라인"
        },
        "longitude": "127.1594612",
        "latitude": "37.2608426",
        "name": "초당",
        "koName": "초당",
        "enName": "Chodang",
        "displayCode": "Y115"
      },
      {
        "id": "1705",
        "logicalLine": {
          "code": "107",
          "name": "에버라인"
        },
        "longitude": "127.1527207",
        "latitude": "37.2691123",
        "name": "동백",
        "koName": "동백",
        "enName": "Dongbaek",
        "displayCode": "Y114"
      },
      {
        "id": "1704",
        "logicalLine": {
          "code": "107",
          "name": "에버라인"
        },
        "longitude": "127.1437434",
        "latitude": "37.2749437",
        "name": "어정",
        "koName": "어정",
        "enName": "Eojeong",
        "displayCode": "Y113"
      },
      {
        "id": "1703",
        "logicalLine": {
          "code": "107",
          "name": "에버라인"
        },
        "longitude": "127.1366128",
        "latitude": "37.2697106",
        "name": "지석",
        "koName": "지석",
        "enName": "Jiseok",
        "displayCode": "Y112"
      },
      {
        "id": "1702",
        "logicalLine": {
          "code": "107",
          "name": "에버라인"
        },
        "longitude": "127.1260071",
        "latitude": "37.2701968",
        "name": "강남대",
        "koName": "강남대",
        "enName": "Kangnam Univ.",
        "displayCode": "Y111"
      },
      {
        "id": "1712",
        "logicalLine": {
          "code": "107",
          "name": "에버라인"
        },
        "longitude": "127.2142222",
        "latitude": "37.2446942",
        "name": "고진",
        "koName": "고진",
        "enName": "Gojin",
        "displayCode": "Y121"
      },
      {
        "id": "11009",
        "logicalLine": {
          "code": "110",
          "name": "의정부경전철"
        },
        "longitude": "127.0637847",
        "latitude": "37.7488688",
        "name": "새말",
        "koName": "새말",
        "enName": "Sae-mal",
        "displayCode": "U119"
      },
      {
        "id": "1711",
        "logicalLine": {
          "code": "107",
          "name": "에버라인"
        },
        "longitude": "127.2090662",
        "latitude": "37.2378989",
        "name": "용인중앙시장",
        "koName": "용인중앙시장",
        "enName": "Yongin Jungang Market",
        "displayCode": "Y120"
      },
      {
        "id": "11008",
        "logicalLine": {
          "code": "110",
          "name": "의정부경전철"
        },
        "longitude": "127.0569791",
        "latitude": "37.7452685",
        "name": "동오",
        "koName": "동오",
        "enName": "Dong-o",
        "displayCode": "U118"
      },
      {
        "id": "1710",
        "logicalLine": {
          "code": "107",
          "name": "에버라인"
        },
        "longitude": "127.1986559",
        "latitude": "37.2373025",
        "name": "김량장",
        "koName": "김량장",
        "enName": "Gimnyangjang",
        "displayCode": "Y119"
      },
      {
        "id": "11001",
        "logicalLine": {
          "code": "110",
          "name": "의정부경전철"
        },
        "longitude": "127.0529099",
        "latitude": "37.7269917",
        "name": "발곡",
        "koName": "발곡",
        "enName": "Balgok",
        "displayCode": "U110"
      },
      {
        "id": "11003",
        "logicalLine": {
          "code": "110",
          "name": "의정부경전철"
        },
        "longitude": "127.043664",
        "latitude": "37.7287961",
        "name": "범골",
        "koName": "범골",
        "enName": "Beomgol",
        "displayCode": "U112"
      },
      {
        "id": "11002",
        "logicalLine": {
          "code": "110",
          "name": "의정부경전철"
        },
        "longitude": "127.0471083",
        "latitude": "37.7250156",
        "name": "회룡",
        "koName": "회룡",
        "enName": "Hoeryong",
        "displayCode": "U111"
      },
      {
        "id": "11005",
        "logicalLine": {
          "code": "110",
          "name": "의정부경전철"
        },
        "longitude": "127.0348665",
        "latitude": "37.7392416",
        "name": "의정부시청",
        "koName": "의정부시청",
        "enName": "Uijeongbu City Hall",
        "displayCode": "U114"
      },
      {
        "id": "1715",
        "logicalLine": {
          "code": "107",
          "name": "에버라인"
        },
        "longitude": "127.2195318",
        "latitude": "37.285388",
        "name": "전대에버랜드",
        "koName": "전대에버랜드",
        "enName": "Jeondae·Everland",
        "displayCode": "Y124"
      },
      {
        "id": "11004",
        "logicalLine": {
          "code": "110",
          "name": "의정부경전철"
        },
        "longitude": "127.043317",
        "latitude": "37.7372914",
        "name": "경전철의정부",
        "koName": "경전철의정부",
        "enName": "Lrt Uijeongbu",
        "displayCode": "U113"
      },
      {
        "id": "1714",
        "logicalLine": {
          "code": "107",
          "name": "에버라인"
        },
        "longitude": "127.2136254",
        "latitude": "37.2671545",
        "name": "둔전",
        "koName": "둔전",
        "enName": "Dunjeon",
        "displayCode": "Y123"
      },
      {
        "id": "11007",
        "logicalLine": {
          "code": "110",
          "name": "의정부경전철"
        },
        "longitude": "127.0496635",
        "latitude": "37.7436839",
        "name": "의정부중앙",
        "koName": "의정부중앙",
        "enName": "Uijeongbu Jung-ang",
        "displayCode": "U117"
      },
      {
        "id": "1713",
        "logicalLine": {
          "code": "107",
          "name": "에버라인"
        },
        "longitude": "127.2184648",
        "latitude": "37.259028",
        "name": "보평",
        "koName": "보평",
        "enName": "Bopyeong",
        "displayCode": "Y122"
      },
      {
        "id": "11006",
        "logicalLine": {
          "code": "110",
          "name": "의정부경전철"
        },
        "longitude": "127.0371208",
        "latitude": "37.7432932",
        "name": "흥선",
        "koName": "흥선",
        "enName": "Heungseon",
        "displayCode": "U115"
      },
      {
        "id": "11010",
        "logicalLine": {
          "code": "110",
          "name": "의정부경전철"
        },
        "longitude": "127.0716381",
        "latitude": "37.750696",
        "name": "경기도청북부청사",
        "koName": "경기도청북부청사",
        "enName": "Gyeonggi Prov Govt North Ofc",
        "displayCode": "U120"
      },
      {
        "id": "11012",
        "logicalLine": {
          "code": "110",
          "name": "의정부경전철"
        },
        "longitude": "127.0838461",
        "latitude": "37.7505337",
        "name": "곤제",
        "koName": "곤제",
        "enName": "Gonje",
        "displayCode": "U122"
      },
      {
        "id": "11011",
        "logicalLine": {
          "code": "110",
          "name": "의정부경전철"
        },
        "longitude": "127.0772341",
        "latitude": "37.753924",
        "name": "효자",
        "koName": "효자",
        "enName": "Hyoja",
        "displayCode": "U121"
      },
      {
        "id": "11014",
        "logicalLine": {
          "code": "110",
          "name": "의정부경전철"
        },
        "longitude": "127.0872089",
        "latitude": "37.7372812",
        "name": "송산",
        "koName": "송산",
        "enName": "Songsan",
        "displayCode": "U124"
      },
      {
        "id": "11013",
        "logicalLine": {
          "code": "110",
          "name": "의정부경전철"
        },
        "longitude": "127.0852264",
        "latitude": "37.7426961",
        "name": "어룡",
        "koName": "어룡",
        "enName": "Eoryong",
        "displayCode": "U123"
      },
      {
        "id": "11015",
        "logicalLine": {
          "code": "110",
          "name": "의정부경전철"
        },
        "longitude": "127.0889136",
        "latitude": "37.7335065",
        "name": "탑석",
        "koName": "탑석",
        "enName": "Tapseok",
        "displayCode": "U125"
      },
      {
        "id": "1509",
        "logicalLine": {
          "code": "116",
          "name": "수인분당선"
        },
        "longitude": "127.0479431",
        "latitude": "37.5806305",
        "name": "청량리",
        "koName": "청량리",
        "enName": "Cheongnyangni",
        "displayCode": "K209"
      },
      {
        "id": "1514",
        "logicalLine": {
          "code": "116",
          "name": "수인분당선"
        },
        "longitude": "127.043642",
        "latitude": "37.5109245",
        "name": "선정릉",
        "koName": "선정릉",
        "enName": "Seonjeongneung",
        "displayCode": "K214"
      },
      {
        "id": "1513",
        "logicalLine": {
          "code": "116",
          "name": "수인분당선"
        },
        "longitude": "127.0414041",
        "latitude": "37.5168484",
        "name": "강남구청",
        "koName": "강남구청",
        "enName": "Gangnam-gu Office",
        "displayCode": "K213"
      },
      {
        "id": "1512",
        "logicalLine": {
          "code": "116",
          "name": "수인분당선"
        },
        "longitude": "127.040572",
        "latitude": "37.5273936",
        "name": "압구정로데오",
        "koName": "압구정로데오",
        "enName": "Apgujeongrodeo",
        "displayCode": "K212"
      },
      {
        "id": "1511",
        "logicalLine": {
          "code": "116",
          "name": "수인분당선"
        },
        "longitude": "127.04469",
        "latitude": "37.543654",
        "name": "서울숲",
        "koName": "서울숲",
        "enName": "Seoul-forest",
        "displayCode": "K211"
      },
      {
        "id": "1510",
        "logicalLine": {
          "code": "116",
          "name": "수인분당선"
        },
        "longitude": "127.0387123",
        "latitude": "37.5615059",
        "name": "왕십리",
        "koName": "왕십리",
        "enName": "Wangsimni",
        "displayCode": "K210"
      },
      {
        "id": "1519",
        "logicalLine": {
          "code": "116",
          "name": "수인분당선"
        },
        "longitude": "127.0664956",
        "latitude": "37.4891822",
        "name": "개포동",
        "koName": "개포동",
        "enName": "Gaepo-dong",
        "displayCode": "K219"
      },
      {
        "id": "1518",
        "logicalLine": {
          "code": "116",
          "name": "수인분당선"
        },
        "longitude": "127.0593452",
        "latitude": "37.4870094",
        "name": "구룡",
        "koName": "구룡",
        "enName": "Guryong",
        "displayCode": "K218"
      },
      {
        "id": "1517",
        "logicalLine": {
          "code": "116",
          "name": "수인분당선"
        },
        "longitude": "127.0553677",
        "latitude": "37.490994",
        "name": "도곡",
        "koName": "도곡",
        "enName": "Dogok",
        "displayCode": "K217"
      },
      {
        "id": "1516",
        "logicalLine": {
          "code": "116",
          "name": "수인분당선"
        },
        "longitude": "127.0528945",
        "latitude": "37.4962147",
        "name": "한티",
        "koName": "한티",
        "enName": "Hanti",
        "displayCode": "K216"
      },
      {
        "id": "1515",
        "logicalLine": {
          "code": "116",
          "name": "수인분당선"
        },
        "longitude": "127.0486062",
        "latitude": "37.5052768",
        "name": "선릉",
        "koName": "선릉",
        "enName": "Seolleung",
        "displayCode": "K215"
      },
      {
        "id": "1525",
        "logicalLine": {
          "code": "116",
          "name": "수인분당선"
        },
        "longitude": "127.1290663",
        "latitude": "37.4321781",
        "name": "모란",
        "koName": "모란",
        "enName": "Moran",
        "displayCode": "K225"
      },
      {
        "id": "1524",
        "logicalLine": {
          "code": "116",
          "name": "수인분당선"
        },
        "longitude": "127.127755",
        "latitude": "37.439869",
        "name": "태평",
        "koName": "태평",
        "enName": "Taepyeong",
        "displayCode": "K224"
      },
      {
        "id": "1523",
        "logicalLine": {
          "code": "116",
          "name": "수인분당선"
        },
        "longitude": "127.1266925",
        "latitude": "37.4487387",
        "name": "가천대",
        "koName": "가천대",
        "enName": "Gachon Univ.",
        "displayCode": "K223"
      },
      {
        "id": "1522",
        "logicalLine": {
          "code": "116",
          "name": "수인분당선"
        },
        "longitude": "127.1266572",
        "latitude": "37.4698373",
        "name": "복정",
        "koName": "복정",
        "enName": "Bokjeong",
        "displayCode": "K222"
      },
      {
        "id": "1521",
        "logicalLine": {
          "code": "116",
          "name": "수인분당선"
        },
        "longitude": "127.1009107",
        "latitude": "37.4879265",
        "name": "수서",
        "koName": "수서",
        "enName": "Suseo",
        "displayCode": "K221"
      },
      {
        "id": "1520",
        "logicalLine": {
          "code": "116",
          "name": "수인분당선"
        },
        "longitude": "127.072761",
        "latitude": "37.4913748",
        "name": "대모산입구",
        "koName": "대모산입구",
        "enName": "Daemosan",
        "displayCode": "K220"
      },
      {
        "id": "1529",
        "logicalLine": {
          "code": "116",
          "name": "수인분당선"
        },
        "longitude": "127.1142328",
        "latitude": "37.3784451",
        "name": "수내",
        "koName": "수내",
        "enName": "Sunae",
        "displayCode": "K229"
      },
      {
        "id": "1528",
        "logicalLine": {
          "code": "116",
          "name": "수인분당선"
        },
        "longitude": "127.1234021",
        "latitude": "37.3849937",
        "name": "서현",
        "koName": "서현",
        "enName": "Seohyeon",
        "displayCode": "K228"
      },
      {
        "id": "1527",
        "logicalLine": {
          "code": "116",
          "name": "수인분당선"
        },
        "longitude": "127.128286",
        "latitude": "37.3958531",
        "name": "이매",
        "koName": "이매",
        "enName": "Imae",
        "displayCode": "K227"
      },
      {
        "id": "1526",
        "logicalLine": {
          "code": "116",
          "name": "수인분당선"
        },
        "longitude": "127.1286745",
        "latitude": "37.4113197",
        "name": "야탑",
        "koName": "야탑",
        "enName": "Yatap",
        "displayCode": "K226"
      },
      {
        "id": "1536",
        "logicalLine": {
          "code": "116",
          "name": "수인분당선"
        },
        "longitude": "127.1113234",
        "latitude": "37.2861338",
        "name": "신갈",
        "koName": "신갈",
        "enName": "Singal",
        "displayCode": "K236"
      },
      {
        "id": "1535",
        "logicalLine": {
          "code": "116",
          "name": "수인분당선"
        },
        "longitude": "127.1056769",
        "latitude": "37.2989066",
        "name": "구성",
        "koName": "구성",
        "enName": "Guseong",
        "displayCode": "K235"
      },
      {
        "id": "1534",
        "logicalLine": {
          "code": "116",
          "name": "수인분당선"
        },
        "longitude": "127.1073978",
        "latitude": "37.3245825",
        "name": "죽전",
        "koName": "죽전",
        "enName": "Jukjeon",
        "displayCode": "K233"
      },
      {
        "id": "1533",
        "logicalLine": {
          "code": "116",
          "name": "수인분당선"
        },
        "longitude": "127.1082321",
        "latitude": "37.3127473",
        "name": "보정",
        "koName": "보정",
        "enName": "Bojeong",
        "displayCode": "K234"
      },
      {
        "id": "1532",
        "logicalLine": {
          "code": "116",
          "name": "수인분당선"
        },
        "longitude": "127.1089962",
        "latitude": "37.3398231",
        "name": "오리",
        "koName": "오리",
        "enName": "Ori",
        "displayCode": "K232"
      },
      {
        "id": "1531",
        "logicalLine": {
          "code": "116",
          "name": "수인분당선"
        },
        "longitude": "127.1089006",
        "latitude": "37.3507506",
        "name": "미금",
        "koName": "미금",
        "enName": "Migeum",
        "displayCode": "K231"
      },
      {
        "id": "1530",
        "logicalLine": {
          "code": "116",
          "name": "수인분당선"
        },
        "longitude": "127.1080884",
        "latitude": "37.3661631",
        "name": "정자",
        "koName": "정자",
        "enName": "Jeongja",
        "displayCode": "K230"
      },
      {
        "id": "1539",
        "logicalLine": {
          "code": "116",
          "name": "수인분당선"
        },
        "longitude": "127.0789586",
        "latitude": "37.25948",
        "name": "청명",
        "koName": "청명",
        "enName": "Cheongmyeong",
        "displayCode": "K239"
      },
      {
        "id": "1538",
        "logicalLine": {
          "code": "116",
          "name": "수인분당선"
        },
        "longitude": "127.1087467",
        "latitude": "37.2618059",
        "name": "상갈",
        "koName": "상갈",
        "enName": "Sanggal",
        "displayCode": "K238"
      },
      {
        "id": "1537",
        "logicalLine": {
          "code": "116",
          "name": "수인분당선"
        },
        "longitude": "127.1159514",
        "latitude": "37.2756463",
        "name": "기흥",
        "koName": "기흥",
        "enName": "Giheung",
        "displayCode": "K237"
      },
      {
        "id": "1305",
        "logicalLine": {
          "code": "104",
          "name": "경의중앙선"
        },
        "longitude": "127.3730572",
        "latitude": "37.5255784",
        "name": "신원",
        "koName": "신원",
        "enName": "Sinwon",
        "displayCode": "K131"
      },
      {
        "id": "1304",
        "logicalLine": {
          "code": "104",
          "name": "경의중앙선"
        },
        "longitude": "127.3994612",
        "latitude": "37.5161955",
        "name": "국수",
        "koName": "국수",
        "enName": "Guksu",
        "displayCode": "K132"
      },
      {
        "id": "1303",
        "logicalLine": {
          "code": "104",
          "name": "경의중앙선"
        },
        "longitude": "127.4432995",
        "latitude": "37.5139483",
        "name": "아신",
        "koName": "아신",
        "enName": "Asin",
        "displayCode": "K133"
      },
      {
        "id": "1545",
        "logicalLine": {
          "code": "116",
          "name": "수인분당선"
        },
        "longitude": "127.0011398",
        "latitude": "37.2665472",
        "name": "수원",
        "koName": "수원",
        "enName": "Suwon",
        "displayCode": "K245"
      },
      {
        "id": "1302",
        "logicalLine": {
          "code": "104",
          "name": "경의중앙선"
        },
        "longitude": "127.4918585",
        "latitude": "37.4926683",
        "name": "양평",
        "koName": "양평",
        "enName": "Yangpyeong",
        "displayCode": "K135"
      },
      {
        "id": "1544",
        "logicalLine": {
          "code": "116",
          "name": "수인분당선"
        },
        "longitude": "127.0157171",
        "latitude": "37.2655124",
        "name": "매교",
        "koName": "매교",
        "enName": "Maegyo",
        "displayCode": "K244"
      },
      {
        "id": "1301",
        "logicalLine": {
          "code": "104",
          "name": "경의중앙선"
        },
        "longitude": "127.5466435",
        "latitude": "37.468719",
        "name": "원덕",
        "koName": "원덕",
        "enName": "Wondeok",
        "displayCode": "K136"
      },
      {
        "id": "1543",
        "logicalLine": {
          "code": "116",
          "name": "수인분당선"
        },
        "longitude": "127.0311206",
        "latitude": "37.2618511",
        "name": "수원시청",
        "koName": "수원시청",
        "enName": "Suwon City Hall",
        "displayCode": "K243"
      },
      {
        "id": "1300",
        "logicalLine": {
          "code": "104",
          "name": "경의중앙선"
        },
        "longitude": "127.5942681",
        "latitude": "37.482095",
        "name": "용문",
        "koName": "용문",
        "enName": "Yongmun",
        "displayCode": "K137"
      },
      {
        "id": "1542",
        "logicalLine": {
          "code": "116",
          "name": "수인분당선"
        },
        "longitude": "127.0406611",
        "latitude": "37.2527042",
        "name": "매탄권선",
        "koName": "매탄권선",
        "enName": "MaetanGwonseon",
        "displayCode": "K242"
      },
      {
        "id": "1541",
        "logicalLine": {
          "code": "116",
          "name": "수인분당선"
        },
        "longitude": "127.0573753",
        "latitude": "37.2458072",
        "name": "망포",
        "koName": "망포",
        "enName": "Mangpo",
        "displayCode": "K241"
      },
      {
        "id": "1540",
        "logicalLine": {
          "code": "116",
          "name": "수인분당선"
        },
        "longitude": "127.0713409",
        "latitude": "37.2515233",
        "name": "영통",
        "koName": "영통",
        "enName": "Yeongtong",
        "displayCode": "K240"
      },
      {
        "id": "1309",
        "logicalLine": {
          "code": "104",
          "name": "경의중앙선"
        },
        "longitude": "127.2227421",
        "latitude": "37.5796446",
        "name": "도심",
        "koName": "도심",
        "enName": "Dosim",
        "displayCode": "K127"
      },
      {
        "id": "1308",
        "logicalLine": {
          "code": "104",
          "name": "경의중앙선"
        },
        "longitude": "127.2439137",
        "latitude": "37.5473258",
        "name": "팔당",
        "koName": "팔당",
        "enName": "Paldang",
        "displayCode": "K128"
      },
      {
        "id": "1307",
        "logicalLine": {
          "code": "104",
          "name": "경의중앙선"
        },
        "longitude": "127.3099366",
        "latitude": "37.554742",
        "name": "운길산",
        "koName": "운길산",
        "enName": "Ungilsan",
        "displayCode": "K129"
      },
      {
        "id": "1306",
        "logicalLine": {
          "code": "104",
          "name": "경의중앙선"
        },
        "longitude": "127.3291446",
        "latitude": "37.5459415",
        "name": "양수",
        "koName": "양수",
        "enName": "Yangsu",
        "displayCode": "K130"
      },
      {
        "id": "1316",
        "logicalLine": {
          "code": "104",
          "name": "경의중앙선"
        },
        "longitude": "127.0758326",
        "latitude": "37.5949042",
        "name": "중랑",
        "koName": "중랑",
        "enName": "Jungnang",
        "displayCode": "K119"
      },
      {
        "id": "1315",
        "logicalLine": {
          "code": "104",
          "name": "경의중앙선"
        },
        "longitude": "127.0923538",
        "latitude": "37.5993046",
        "name": "망우",
        "koName": "망우",
        "enName": "Mangu",
        "displayCode": "K121"
      },
      {
        "id": "1314",
        "logicalLine": {
          "code": "104",
          "name": "경의중앙선"
        },
        "longitude": "127.1080081",
        "latitude": "37.6066358",
        "name": "양원",
        "koName": "양원",
        "enName": "Yangwon",
        "displayCode": "K122"
      },
      {
        "id": "1313",
        "logicalLine": {
          "code": "104",
          "name": "경의중앙선"
        },